{
  "metadata": {
    "source": "Disaster Management Center, Sri Lanka",
    "extracted_at": "2025-12-09T12:25:42.395620",
    "report_date": "2025-12-09T09:00:00",
    "report_date_formatted": "December 09, 2025 at 09:00 hrs",
    "pdf_url": "https://www.dmc.gov.lk/images/dmcreports/Situation_Report_at_0600hrs_on_2025__1765257271.pdf",
    "scraped_title": "Situation Report"
  },
  "districts": [
    {
      "district": "Puttalam",
      "lat": 8.0362,
      "lon": 79.8283,
      "families_affected": 98146,
      "people_affected": 349429,
      "deaths": 37,
      "missing": 2,
      "houses_fully_damaged": 415,
      "houses_partially_damaged": 4809,
      "safety_centers": 17,
      "families_displaced": 121,
      "people_displaced": 388
    },
    {
      "district": "Badulla",
      "lat": 6.9934,
      "lon": 81.055,
      "families_affected": 17436,
      "people_affected": 58699,
      "deaths": 90,
      "missing": 11,
      "houses_fully_damaged": 404,
      "houses_partially_damaged": 7291,
      "safety_centers": 144,
      "families_displaced": 5414,
      "people_displaced": 16750
    },
    {
      "district": "Monaragala",
      "lat": 6.8728,
      "lon": 81.3507,
      "families_affected": 1521,
      "people_affected": 5262,
      "deaths": 4,
      "missing": 0,
      "houses_fully_damaged": 38,
      "houses_partially_damaged": 490,
      "safety_centers": 2,
      "families_displaced": 59,
      "people_displaced": 161
    },
    {
      "district": "Matale",
      "lat": 7.4675,
      "lon": 80.6234,
      "families_affected": 7288,
      "people_affected": 25813,
      "deaths": 28,
      "missing": 9,
      "houses_fully_damaged": 202,
      "houses_partially_damaged": 2864,
      "safety_centers": 41,
      "families_displaced": 1223,
      "people_displaced": 3654
    },
    {
      "district": "Colombo",
      "lat": 6.9271,
      "lon": 79.8612,
      "families_affected": 85669,
      "people_affected": 328577,
      "deaths": 9,
      "missing": 0,
      "houses_fully_damaged": 74,
      "houses_partially_damaged": 3828,
      "safety_centers": 12,
      "families_displaced": 232,
      "people_displaced": 729
    },
    {
      "district": "Batticaloa",
      "lat": 7.731,
      "lon": 81.6747,
      "families_affected": 12469,
      "people_affected": 37389,
      "deaths": 4,
      "missing": 0,
      "houses_fully_damaged": 11,
      "houses_partially_damaged": 946,
      "safety_centers": 0,
      "families_displaced": 0,
      "people_displaced": 0
    },
    {
      "district": "Kegalle",
      "lat": 7.2513,
      "lon": 80.3464,
      "families_affected": 20749,
      "people_affected": 73558,
      "deaths": 32,
      "missing": 39,
      "houses_fully_damaged": 301,
      "houses_partially_damaged": 11625,
      "safety_centers": 118,
      "families_displaced": 3435,
      "people_displaced": 10698
    },
    {
      "district": "Trincomalee",
      "lat": 8.5874,
      "lon": 81.2152,
      "families_affected": 26009,
      "people_affected": 86685,
      "deaths": 0,
      "missing": 0,
      "houses_fully_damaged": 0,
      "houses_partially_damaged": 727,
      "safety_centers": 0,
      "families_displaced": 0,
      "people_displaced": 0
    },
    {
      "district": "Anuradhapura",
      "lat": 8.335,
      "lon": 80.4108,
      "families_affected": 21958,
      "people_affected": 72387,
      "deaths": 13,
      "missing": 0,
      "houses_fully_damaged": 227,
      "houses_partially_damaged": 2257,
      "safety_centers": 3,
      "families_displaced": 43,
      "people_displaced": 142
    },
    {
      "district": "Mullaitivu",
      "lat": 9.2671,
      "lon": 80.8142,
      "families_affected": 12469,
      "people_affected": 37389,
      "deaths": 2,
      "missing": 0,
      "houses_fully_damaged": 11,
      "houses_partially_damaged": 946,
      "safety_centers": 0,
      "families_displaced": 0,
      "people_displaced": 0
    },
    {
      "district": "Kilinochchi",
      "lat": 9.3803,
      "lon": 80.377,
      "families_affected": 8878,
      "people_affected": 28093,
      "deaths": 0,
      "missing": 0,
      "houses_fully_damaged": 2,
      "houses_partially_damaged": 374,
      "safety_centers": 0,
      "families_displaced": 0,
      "people_displaced": 0
    },
    {
      "district": "Ampara",
      "lat": 7.2917,
      "lon": 81.672,
      "families_affected": 6942,
      "people_affected": 23781,
      "deaths": 8,
      "missing": 0,
      "houses_fully_damaged": 111,
      "houses_partially_damaged": 509,
      "safety_centers": 0,
      "families_displaced": 0,
      "people_displaced": 0
    },
    {
      "district": "Jaffna",
      "lat": 9.6615,
      "lon": 80.0255,
      "families_affected": 16918,
      "people_affected": 53828,
      "deaths": 3,
      "missing": 0,
      "houses_fully_damaged": 2,
      "houses_partially_damaged": 370,
      "safety_centers": 5,
      "families_displaced": 87,
      "people_displaced": 262
    },
    {
      "district": "Polonnaruwa",
      "lat": 7.9403,
      "lon": 81.0188,
      "families_affected": 11570,
      "people_affected": 41128,
      "deaths": 2,
      "missing": 0,
      "houses_fully_damaged": 225,
      "houses_partially_damaged": 3588,
      "safety_centers": 5,
      "families_displaced": 282,
      "people_displaced": 1372
    },
    {
      "district": "Kandy",
      "lat": 7.2906,
      "lon": 80.6337,
      "families_affected": 51098,
      "people_affected": 161140,
      "deaths": 234,
      "missing": 81,
      "houses_fully_damaged": 1815,
      "houses_partially_damaged": 13422,
      "safety_centers": 11,
      "families_displaced": 402,
      "people_displaced": 1154
    },
    {
      "district": "Ratnapura",
      "lat": 6.6828,
      "lon": 80.3992,
      "families_affected": 18593,
      "people_affected": 72381,
      "deaths": 1,
      "missing": 0,
      "houses_fully_damaged": 6,
      "houses_partially_damaged": 7958,
      "safety_centers": 7,
      "families_displaced": 212,
      "people_displaced": 358
    },
    {
      "district": "Kurunegala",
      "lat": 7.4863,
      "lon": 80.3647,
      "families_affected": 25055,
      "people_affected": 85891,
      "deaths": 61,
      "missing": 11,
      "houses_fully_damaged": 476,
      "houses_partially_damaged": 3600,
      "safety_centers": 39,
      "families_displaced": 1177,
      "people_displaced": 4063
    },
    {
      "district": "Nuwara Eliya",
      "lat": 6.9497,
      "lon": 80.7891,
      "families_affected": 19780,
      "people_affected": 63121,
      "deaths": 89,
      "missing": 37,
      "houses_fully_damaged": 767,
      "houses_partially_damaged": 3742,
      "safety_centers": 211,
      "families_displaced": 6652,
      "people_displaced": 20825
    },
    {
      "district": "Matara",
      "lat": 5.9549,
      "lon": 80.555,
      "families_affected": 448,
      "people_affected": 1671,
      "deaths": 0,
      "missing": 0,
      "houses_fully_damaged": 1,
      "houses_partially_damaged": 437,
      "safety_centers": 0,
      "families_displaced": 0,
      "people_displaced": 0
    },
    {
      "district": "Hambantota",
      "lat": 6.1429,
      "lon": 81.1212,
      "families_affected": 3353,
      "people_affected": 11733,
      "deaths": 1,
      "missing": 0,
      "houses_fully_damaged": 4,
      "houses_partially_damaged": 188,
      "safety_centers": 0,
      "families_displaced": 0,
      "people_displaced": 0
    },
    {
      "district": "Galle",
      "lat": 6.0535,
      "lon": 80.221,
      "families_affected": 518,
      "people_affected": 1795,
      "deaths": 1,
      "missing": 0,
      "houses_fully_damaged": 0,
      "houses_partially_damaged": 492,
      "safety_centers": 0,
      "families_displaced": 0,
      "people_displaced": 0
    },
    {
      "district": "Kalutara",
      "lat": 6.5854,
      "lon": 79.9607,
      "families_affected": 2013,
      "people_affected": 7093,
      "deaths": 0,
      "missing": 0,
      "houses_fully_damaged": 1,
      "houses_partially_damaged": 953,
      "safety_centers": 0,
      "families_displaced": 0,
      "people_displaced": 0
    },
    {
      "district": "Mannar",
      "lat": 8.981,
      "lon": 79.9044,
      "families_affected": 23641,
      "people_affected": 77451,
      "deaths": 3,
      "missing": 0,
      "houses_fully_damaged": 28,
      "houses_partially_damaged": 256,
      "safety_centers": 6,
      "families_displaced": 732,
      "people_displaced": 2134
    },
    {
      "district": "Gampaha",
      "lat": 7.0873,
      "lon": 80.0144,
      "families_affected": 3117,
      "people_affected": 12251,
      "deaths": 16,
      "missing": 1,
      "houses_fully_damaged": 216,
      "houses_partially_damaged": 5830,
      "safety_centers": 6,
      "families_displaced": 223,
      "people_displaced": 706
    },
    {
      "district": "Vavuniya",
      "lat": 8.7514,
      "lon": 80.4971,
      "families_affected": 6320,
      "people_affected": 20785,
      "deaths": 0,
      "missing": 0,
      "houses_fully_damaged": 17,
      "houses_partially_damaged": 4119,
      "safety_centers": 3,
      "families_displaced": 79,
      "people_displaced": 232
    }
  ],
  "totals": {
    "total_families_affected": 501958,
    "total_people_affected": 1737330,
    "total_deaths": 638,
    "total_missing": 191,
    "total_houses_fully_damaged": 5354,
    "total_houses_partially_damaged": 81621,
    "total_safety_centers": 630,
    "total_families_displaced": 20373,
    "total_people_displaced": 63628,
    "districts_affected": 25
  }
}